{"type":"FeatureCollection","features":[{"type":"Feature","id":"E3WebApp_Emissions.fid--3a95e1c6_1998600984c_-5ebf","geometry":{"type":"Point","coordinates":[130.217,30.443]},"geometry_name":"GeoLocation","properties":{"VolcanoNumber":282050,"VolcanoName":"Kuchinoerabujima","SO2_Kilotons":4,"StartDate":"20150529","EndDate":"20150529","Emission_ID":166}},{"type":"Feature","id":"E3WebApp_Emissions.fid--3a95e1c6_1998600984c_-5ebe","geometry":{"type":"Point","coordinates":[29.2,-1.408]},"geometry_name":"GeoLocation","properties":{"VolcanoNumber":223020,"VolcanoName":"Nyamulagira","SO2_Kilotons":884,"StartDate":"19800131","EndDate":"19800131","Emission_ID":37}},{"type":"Feature","id":"E3WebApp_Emissions.fid--3a95e1c6_1998600984c_-5ebd","geometry":{"type":"Point","coordinates":[29.2,-1.408]},"geometry_name":"GeoLocation","properties":{"VolcanoNumber":223020,"VolcanoName":"Nyamulagira","SO2_Kilotons":4122,"StartDate":"19811225","EndDate":"19811225","Emission_ID":38}},{"type":"Feature","id":"E3WebApp_Emissions.fid--3a95e1c6_1998600984c_-5ebc","geometry":{"type":"Point","coordinates":[29.2,-1.408]},"geometry_name":"GeoLocation","properties":{"VolcanoNumber":223020,"VolcanoName":"Nyamulagira","SO2_Kilotons":1384,"StartDate":"19840223","EndDate":"19840223","Emission_ID":39}},{"type":"Feature","id":"E3WebApp_Emissions.fid--3a95e1c6_1998600984c_-5ebb","geometry":{"type":"Point","coordinates":[29.2,-1.408]},"geometry_name":"GeoLocation","properties":{"VolcanoNumber":223020,"VolcanoName":"Nyamulagira","SO2_Kilotons":983,"StartDate":"19860716","EndDate":"19860716","Emission_ID":40}},{"type":"Feature","id":"E3WebApp_Emissions.fid--3a95e1c6_1998600984c_-5eba","geometry":{"type":"Point","coordinates":[29.2,-1.408]},"geometry_name":"GeoLocation","properties":{"VolcanoNumber":223020,"VolcanoName":"Nyamulagira","SO2_Kilotons":28,"StartDate":"19871231","EndDate":"19871231","Emission_ID":41}},{"type":"Feature","id":"E3WebApp_Emissions.fid--3a95e1c6_1998600984c_-5eb9","geometry":{"type":"Point","coordinates":[29.2,-1.408]},"geometry_name":"GeoLocation","properties":{"VolcanoNumber":223020,"VolcanoName":"Nyamulagira","SO2_Kilotons":2105,"StartDate":"19890424","EndDate":"19890424","Emission_ID":42}},{"type":"Feature","id":"E3WebApp_Emissions.fid--3a95e1c6_1998600984c_-5eb8","geometry":{"type":"Point","coordinates":[29.2,-1.408]},"geometry_name":"GeoLocation","properties":{"VolcanoNumber":223020,"VolcanoName":"Nyamulagira","SO2_Kilotons":858,"StartDate":"19910922","EndDate":"19910922","Emission_ID":43}},{"type":"Feature","id":"E3WebApp_Emissions.fid--3a95e1c6_1998600984c_-5eb7","geometry":{"type":"Point","coordinates":[29.2,-1.408]},"geometry_name":"GeoLocation","properties":{"VolcanoNumber":223020,"VolcanoName":"Nyamulagira","SO2_Kilotons":1514,"StartDate":"19940705","EndDate":"19940705","Emission_ID":44}},{"type":"Feature","id":"E3WebApp_Emissions.fid--3a95e1c6_1998600984c_-5eb6","geometry":{"type":"Point","coordinates":[29.2,-1.408]},"geometry_name":"GeoLocation","properties":{"VolcanoNumber":223020,"VolcanoName":"Nyamulagira","SO2_Kilotons":887,"StartDate":"19961201","EndDate":"19961201","Emission_ID":45}},{"type":"Feature","id":"E3WebApp_Emissions.fid--3a95e1c6_1998600984c_-5eb5","geometry":{"type":"Point","coordinates":[29.2,-1.408]},"geometry_name":"GeoLocation","properties":{"VolcanoNumber":223020,"VolcanoName":"Nyamulagira","SO2_Kilotons":2513,"StartDate":"19981017","EndDate":"19981017","Emission_ID":46}},{"type":"Feature","id":"E3WebApp_Emissions.fid--3a95e1c6_1998600984c_-5eb4","geometry":{"type":"Point","coordinates":[29.2,-1.408]},"geometry_name":"GeoLocation","properties":{"VolcanoNumber":223020,"VolcanoName":"Nyamulagira","SO2_Kilotons":317,"StartDate":"20000128","EndDate":"20000128","Emission_ID":47}},{"type":"Feature","id":"E3WebApp_Emissions.fid--3a95e1c6_1998600984c_-5eb3","geometry":{"type":"Point","coordinates":[29.2,-1.408]},"geometry_name":"GeoLocation","properties":{"VolcanoNumber":223020,"VolcanoName":"Nyamulagira","SO2_Kilotons":1651,"StartDate":"20010206","EndDate":"20010206","Emission_ID":48}},{"type":"Feature","id":"E3WebApp_Emissions.fid--3a95e1c6_1998600984c_-5eb2","geometry":{"type":"Point","coordinates":[29.2,-1.408]},"geometry_name":"GeoLocation","properties":{"VolcanoNumber":223020,"VolcanoName":"Nyamulagira","SO2_Kilotons":2321,"StartDate":"20020725","EndDate":"20020725","Emission_ID":49}},{"type":"Feature","id":"E3WebApp_Emissions.fid--3a95e1c6_1998600984c_-5eb1","geometry":{"type":"Point","coordinates":[29.2,-1.408]},"geometry_name":"GeoLocation","properties":{"VolcanoNumber":223020,"VolcanoName":"Nyamulagira","SO2_Kilotons":2587,"StartDate":"20040508","EndDate":"20040508","Emission_ID":50}},{"type":"Feature","id":"E3WebApp_Emissions.fid--3a95e1c6_1998600984c_-5eb0","geometry":{"type":"Point","coordinates":[29.2,-1.408]},"geometry_name":"GeoLocation","properties":{"VolcanoNumber":223020,"VolcanoName":"Nyamulagira","SO2_Kilotons":675,"StartDate":"20061127","EndDate":"20061127","Emission_ID":51}},{"type":"Feature","id":"E3WebApp_Emissions.fid--3a95e1c6_1998600984c_-5eaf","geometry":{"type":"Point","coordinates":[29.2,-1.408]},"geometry_name":"GeoLocation","properties":{"VolcanoNumber":223020,"VolcanoName":"Nyamulagira","SO2_Kilotons":601,"StartDate":"20100102","EndDate":"20100102","Emission_ID":52}},{"type":"Feature","id":"E3WebApp_Emissions.fid--3a95e1c6_1998600984c_-5eae","geometry":{"type":"Point","coordinates":[29.2,-1.408]},"geometry_name":"GeoLocation","properties":{"VolcanoNumber":223020,"VolcanoName":"Nyamulagira","SO2_Kilotons":1719,"StartDate":"20111107","EndDate":"20111107","Emission_ID":53}},{"type":"Feature","id":"E3WebApp_Emissions.fid--3a95e1c6_1998600984c_-5ead","geometry":{"type":"Point","coordinates":[29.25,-1.52]},"geometry_name":"GeoLocation","properties":{"VolcanoNumber":223030,"VolcanoName":"Nyiragongo","SO2_Kilotons":30,"StartDate":"20020117","EndDate":"20020117","Emission_ID":54}},{"type":"Feature","id":"E3WebApp_Emissions.fid--3a95e1c6_1998600984c_-5eac","geometry":{"type":"Point","coordinates":[9.17,4.203]},"geometry_name":"GeoLocation","properties":{"VolcanoNumber":224010,"VolcanoName":"Cameroon","SO2_Kilotons":3,"StartDate":"19821018","EndDate":"19821018","Emission_ID":55}},{"type":"Feature","id":"E3WebApp_Emissions.fid--3a95e1c6_1998600984c_-5eab","geometry":{"type":"Point","coordinates":[9.17,4.203]},"geometry_name":"GeoLocation","properties":{"VolcanoNumber":224010,"VolcanoName":"Cameroon","SO2_Kilotons":45,"StartDate":"19990330","EndDate":"19990330","Emission_ID":56}},{"type":"Feature","id":"E3WebApp_Emissions.fid--3a95e1c6_1998600984c_-5eaa","geometry":{"type":"Point","coordinates":[107.73,-7.32]},"geometry_name":"GeoLocation","properties":{"VolcanoNumber":263100,"VolcanoName":"Papandayan","SO2_Kilotons":7,"StartDate":"20021113","EndDate":"20021113","Emission_ID":112}},{"type":"Feature","id":"E3WebApp_Emissions.fid--3a95e1c6_1998600984c_-5ea9","geometry":{"type":"Point","coordinates":[108.058,-7.25]},"geometry_name":"GeoLocation","properties":{"VolcanoNumber":263140,"VolcanoName":"Galunggung","SO2_Kilotons":730,"StartDate":"19820405","EndDate":"19820603","Emission_ID":113}},{"type":"Feature","id":"E3WebApp_Emissions.fid--3a95e1c6_1998600984c_-5ea8","geometry":{"type":"Point","coordinates":[108.058,-7.25]},"geometry_name":"GeoLocation","properties":{"VolcanoNumber":263140,"VolcanoName":"Galunggung","SO2_Kilotons":430,"StartDate":"19820624","EndDate":"19820624","Emission_ID":114}},{"type":"Feature","id":"E3WebApp_Emissions.fid--3a95e1c6_1998600984c_-5ea7","geometry":{"type":"Point","coordinates":[108.058,-7.25]},"geometry_name":"GeoLocation","properties":{"VolcanoNumber":263140,"VolcanoName":"Galunggung","SO2_Kilotons":440,"StartDate":"19820713","EndDate":"19820717","Emission_ID":115}},{"type":"Feature","id":"E3WebApp_Emissions.fid--3a95e1c6_1998600984c_-5ea6","geometry":{"type":"Point","coordinates":[108.058,-7.25]},"geometry_name":"GeoLocation","properties":{"VolcanoNumber":263140,"VolcanoName":"Galunggung","SO2_Kilotons":130,"StartDate":"19820815","EndDate":"19820918","Emission_ID":116}},{"type":"Feature","id":"E3WebApp_Emissions.fid--3a95e1c6_1998600984c_-5ea5","geometry":{"type":"Point","coordinates":[-83.767,10.025]},"geometry_name":"GeoLocation","properties":{"VolcanoNumber":345070,"VolcanoName":"Turrialba","SO2_Kilotons":3,"StartDate":"20141030","EndDate":"20141030","Emission_ID":295}},{"type":"Feature","id":"E3WebApp_Emissions.fid--3a95e1c6_1998600984c_-5ea4","geometry":{"type":"Point","coordinates":[-75.324,4.892]},"geometry_name":"GeoLocation","properties":{"VolcanoNumber":351020,"VolcanoName":"Ruiz, Nevado del","SO2_Kilotons":90,"StartDate":"19850912","EndDate":"19850912","Emission_ID":296}},{"type":"Feature","id":"E3WebApp_Emissions.fid--3a95e1c6_1998600984c_-5ea3","geometry":{"type":"Point","coordinates":[-75.324,4.892]},"geometry_name":"GeoLocation","properties":{"VolcanoNumber":351020,"VolcanoName":"Ruiz, Nevado del","SO2_Kilotons":660,"StartDate":"19851114","EndDate":"19851114","Emission_ID":297}},{"type":"Feature","id":"E3WebApp_Emissions.fid--3a95e1c6_1998600984c_-5ea2","geometry":{"type":"Point","coordinates":[-75.324,4.892]},"geometry_name":"GeoLocation","properties":{"VolcanoNumber":351020,"VolcanoName":"Ruiz, Nevado del","SO2_Kilotons":12,"StartDate":"19890901","EndDate":"19890901","Emission_ID":298}},{"type":"Feature","id":"E3WebApp_Emissions.fid--3a95e1c6_1998600984c_-5ea1","geometry":{"type":"Point","coordinates":[-24.35,14.95]},"geometry_name":"GeoLocation","properties":{"VolcanoNumber":384010,"VolcanoName":"Fogo","SO2_Kilotons":382,"StartDate":"20141123","EndDate":"20141123","Emission_ID":363}},{"type":"Feature","id":"E3WebApp_Emissions.fid--3a95e1c6_1998600984c_-5ea0","geometry":{"type":"Point","coordinates":[145.037,-4.08]},"geometry_name":"GeoLocation","properties":{"VolcanoNumber":251020,"VolcanoName":"Manam","SO2_Kilotons":3,"StartDate":"19970208","EndDate":"19970208","Emission_ID":80}},{"type":"Feature","id":"E3WebApp_Emissions.fid--3a95e1c6_1998600984c_-5e9f","geometry":{"type":"Point","coordinates":[145.037,-4.08]},"geometry_name":"GeoLocation","properties":{"VolcanoNumber":251020,"VolcanoName":"Manam","SO2_Kilotons":17,"StartDate":"19981005","EndDate":"19981005","Emission_ID":81}},{"type":"Feature","id":"E3WebApp_Emissions.fid--3a95e1c6_1998600984c_-5e9e","geometry":{"type":"Point","coordinates":[145.037,-4.08]},"geometry_name":"GeoLocation","properties":{"VolcanoNumber":251020,"VolcanoName":"Manam","SO2_Kilotons":10,"StartDate":"20020519","EndDate":"20020519","Emission_ID":82}},{"type":"Feature","id":"E3WebApp_Emissions.fid--3a95e1c6_1998600984c_-5e9d","geometry":{"type":"Point","coordinates":[145.037,-4.08]},"geometry_name":"GeoLocation","properties":{"VolcanoNumber":251020,"VolcanoName":"Manam","SO2_Kilotons":152,"StartDate":"20041024","EndDate":"20041127","Emission_ID":83}},{"type":"Feature","id":"E3WebApp_Emissions.fid--3a95e1c6_1998600984c_-5e9c","geometry":{"type":"Point","coordinates":[145.037,-4.08]},"geometry_name":"GeoLocation","properties":{"VolcanoNumber":251020,"VolcanoName":"Manam","SO2_Kilotons":38,"StartDate":"20041220","EndDate":"20041220","Emission_ID":84}},{"type":"Feature","id":"E3WebApp_Emissions.fid--3a95e1c6_1998600984c_-5e9b","geometry":{"type":"Point","coordinates":[145.037,-4.08]},"geometry_name":"GeoLocation","properties":{"VolcanoNumber":251020,"VolcanoName":"Manam","SO2_Kilotons":140,"StartDate":"20050128","EndDate":"20050128","Emission_ID":85}},{"type":"Feature","id":"E3WebApp_Emissions.fid--3a95e1c6_1998600984c_-5e9a","geometry":{"type":"Point","coordinates":[145.037,-4.08]},"geometry_name":"GeoLocation","properties":{"VolcanoNumber":251020,"VolcanoName":"Manam","SO2_Kilotons":50,"StartDate":"20060227","EndDate":"20060227","Emission_ID":86}},{"type":"Feature","id":"E3WebApp_Emissions.fid--3a95e1c6_1998600984c_-5e99","geometry":{"type":"Point","coordinates":[145.037,-4.08]},"geometry_name":"GeoLocation","properties":{"VolcanoNumber":251020,"VolcanoName":"Manam","SO2_Kilotons":10,"StartDate":"20130413","EndDate":"20130413","Emission_ID":87}},{"type":"Feature","id":"E3WebApp_Emissions.fid--3a95e1c6_1998600984c_-5e98","geometry":{"type":"Point","coordinates":[145.037,-4.08]},"geometry_name":"GeoLocation","properties":{"VolcanoNumber":251020,"VolcanoName":"Manam","SO2_Kilotons":50,"StartDate":"20150731","EndDate":"20150731","Emission_ID":88}},{"type":"Feature","id":"E3WebApp_Emissions.fid--3a95e1c6_1998600984c_-5e97","geometry":{"type":"Point","coordinates":[153.2,48.092]},"geometry_name":"GeoLocation","properties":{"VolcanoNumber":290240,"VolcanoName":"Sarychev Peak","SO2_Kilotons":1200,"StartDate":"20090615","EndDate":"20090615","Emission_ID":175}},{"type":"Feature","id":"E3WebApp_Emissions.fid--3a95e1c6_1998600984c_-5e96","geometry":{"type":"Point","coordinates":[155.461,50.324]},"geometry_name":"GeoLocation","properties":{"VolcanoNumber":290360,"VolcanoName":"Chikurachki","SO2_Kilotons":750,"StartDate":"19861120","EndDate":"19861202","Emission_ID":176}},{"type":"Feature","id":"E3WebApp_Emissions.fid--3a95e1c6_1998600984c_-5e95","geometry":{"type":"Point","coordinates":[155.461,50.324]},"geometry_name":"GeoLocation","properties":{"VolcanoNumber":290360,"VolcanoName":"Chikurachki","SO2_Kilotons":5,"StartDate":"20050312","EndDate":"20050312","Emission_ID":177}},{"type":"Feature","id":"E3WebApp_Emissions.fid--3a95e1c6_1998600984c_-5e94","geometry":{"type":"Point","coordinates":[155.461,50.324]},"geometry_name":"GeoLocation","properties":{"VolcanoNumber":290360,"VolcanoName":"Chikurachki","SO2_Kilotons":30,"StartDate":"20070304","EndDate":"20070304","Emission_ID":178}},{"type":"Feature","id":"E3WebApp_Emissions.fid--3a95e1c6_1998600984c_-5e93","geometry":{"type":"Point","coordinates":[155.461,50.324]},"geometry_name":"GeoLocation","properties":{"VolcanoNumber":290360,"VolcanoName":"Chikurachki","SO2_Kilotons":20,"StartDate":"20070819","EndDate":"20070819","Emission_ID":179}},{"type":"Feature","id":"E3WebApp_Emissions.fid--3a95e1c6_1998600984c_-5e92","geometry":{"type":"Point","coordinates":[155.461,50.324]},"geometry_name":"GeoLocation","properties":{"VolcanoNumber":290360,"VolcanoName":"Chikurachki","SO2_Kilotons":20,"StartDate":"20080718","EndDate":"20080718","Emission_ID":180}},{"type":"Feature","id":"E3WebApp_Emissions.fid--3a95e1c6_1998600984c_-5e91","geometry":{"type":"Point","coordinates":[155.461,50.324]},"geometry_name":"GeoLocation","properties":{"VolcanoNumber":290360,"VolcanoName":"Chikurachki","SO2_Kilotons":5,"StartDate":"20150216","EndDate":"20150216","Emission_ID":181}},{"type":"Feature","id":"E3WebApp_Emissions.fid--3a95e1c6_1998600984c_-5e90","geometry":{"type":"Point","coordinates":[155.461,50.324]},"geometry_name":"GeoLocation","properties":{"VolcanoNumber":290360,"VolcanoName":"Chikurachki","SO2_Kilotons":4,"StartDate":"20160330","EndDate":"20160330","Emission_ID":182}},{"type":"Feature","id":"E3WebApp_Emissions.fid--3a95e1c6_1998600984c_-5e8f","geometry":{"type":"Point","coordinates":[-70.568,-35.223]},"geometry_name":"GeoLocation","properties":{"VolcanoNumber":357040,"VolcanoName":"Planchon-Peteroa","SO2_Kilotons":1,"StartDate":"20110502","EndDate":"20110502","Emission_ID":323}},{"type":"Feature","id":"E3WebApp_Emissions.fid--3a95e1c6_1998600984c_-5e8e","geometry":{"type":"Point","coordinates":[130.862,31.934]},"geometry_name":"GeoLocation","properties":{"VolcanoNumber":282090,"VolcanoName":"Kirishimayama","SO2_Kilotons":30,"StartDate":"20110126","EndDate":"20110126","Emission_ID":167}}],"totalFeatures":360,"numberMatched":360,"numberReturned":50,"timeStamp":"2025-09-26T13:19:24.576Z","crs":{"type":"name","properties":{"name":"urn:ogc:def:crs:EPSG::4326"}}}