{"type":"FeatureCollection","features":[{"type":"Feature","id":"E3WebApp_Emissions.fid--766d72af_19b1f43468b_4516","geometry":{"type":"Point","coordinates":[130.217,30.443]},"geometry_name":"GeoLocation","properties":{"VolcanoNumber":282050,"VolcanoName":"Kuchinoerabujima","SO2_Kilotons":4,"StartDate":"20150529","EndDate":"20150529","Emission_ID":166}},{"type":"Feature","id":"E3WebApp_Emissions.fid--766d72af_19b1f43468b_4517","geometry":{"type":"Point","coordinates":[145.037,-4.08]},"geometry_name":"GeoLocation","properties":{"VolcanoNumber":251020,"VolcanoName":"Manam","SO2_Kilotons":3,"StartDate":"19970208","EndDate":"19970208","Emission_ID":80}},{"type":"Feature","id":"E3WebApp_Emissions.fid--766d72af_19b1f43468b_4518","geometry":{"type":"Point","coordinates":[145.037,-4.08]},"geometry_name":"GeoLocation","properties":{"VolcanoNumber":251020,"VolcanoName":"Manam","SO2_Kilotons":17,"StartDate":"19981005","EndDate":"19981005","Emission_ID":81}},{"type":"Feature","id":"E3WebApp_Emissions.fid--766d72af_19b1f43468b_4519","geometry":{"type":"Point","coordinates":[145.037,-4.08]},"geometry_name":"GeoLocation","properties":{"VolcanoNumber":251020,"VolcanoName":"Manam","SO2_Kilotons":10,"StartDate":"20020519","EndDate":"20020519","Emission_ID":82}},{"type":"Feature","id":"E3WebApp_Emissions.fid--766d72af_19b1f43468b_451a","geometry":{"type":"Point","coordinates":[145.037,-4.08]},"geometry_name":"GeoLocation","properties":{"VolcanoNumber":251020,"VolcanoName":"Manam","SO2_Kilotons":152,"StartDate":"20041024","EndDate":"20041127","Emission_ID":83}},{"type":"Feature","id":"E3WebApp_Emissions.fid--766d72af_19b1f43468b_451b","geometry":{"type":"Point","coordinates":[145.037,-4.08]},"geometry_name":"GeoLocation","properties":{"VolcanoNumber":251020,"VolcanoName":"Manam","SO2_Kilotons":38,"StartDate":"20041220","EndDate":"20041220","Emission_ID":84}},{"type":"Feature","id":"E3WebApp_Emissions.fid--766d72af_19b1f43468b_451c","geometry":{"type":"Point","coordinates":[145.037,-4.08]},"geometry_name":"GeoLocation","properties":{"VolcanoNumber":251020,"VolcanoName":"Manam","SO2_Kilotons":140,"StartDate":"20050128","EndDate":"20050128","Emission_ID":85}},{"type":"Feature","id":"E3WebApp_Emissions.fid--766d72af_19b1f43468b_451d","geometry":{"type":"Point","coordinates":[145.037,-4.08]},"geometry_name":"GeoLocation","properties":{"VolcanoNumber":251020,"VolcanoName":"Manam","SO2_Kilotons":50,"StartDate":"20060227","EndDate":"20060227","Emission_ID":86}},{"type":"Feature","id":"E3WebApp_Emissions.fid--766d72af_19b1f43468b_451e","geometry":{"type":"Point","coordinates":[145.037,-4.08]},"geometry_name":"GeoLocation","properties":{"VolcanoNumber":251020,"VolcanoName":"Manam","SO2_Kilotons":10,"StartDate":"20130413","EndDate":"20130413","Emission_ID":87}},{"type":"Feature","id":"E3WebApp_Emissions.fid--766d72af_19b1f43468b_451f","geometry":{"type":"Point","coordinates":[145.037,-4.08]},"geometry_name":"GeoLocation","properties":{"VolcanoNumber":251020,"VolcanoName":"Manam","SO2_Kilotons":50,"StartDate":"20150731","EndDate":"20150731","Emission_ID":88}},{"type":"Feature","id":"E3WebApp_Emissions.fid--766d72af_19b1f43468b_4520","geometry":{"type":"Point","coordinates":[-19.666,63.983]},"geometry_name":"GeoLocation","properties":{"VolcanoNumber":372070,"VolcanoName":"Hekla","SO2_Kilotons":460,"StartDate":"19800818","EndDate":"19800818","Emission_ID":351}},{"type":"Feature","id":"E3WebApp_Emissions.fid--766d72af_19b1f43468b_4521","geometry":{"type":"Point","coordinates":[-19.666,63.983]},"geometry_name":"GeoLocation","properties":{"VolcanoNumber":372070,"VolcanoName":"Hekla","SO2_Kilotons":10,"StartDate":"19810409","EndDate":"19810409","Emission_ID":352}},{"type":"Feature","id":"E3WebApp_Emissions.fid--766d72af_19b1f43468b_4522","geometry":{"type":"Point","coordinates":[-19.666,63.983]},"geometry_name":"GeoLocation","properties":{"VolcanoNumber":372070,"VolcanoName":"Hekla","SO2_Kilotons":230,"StartDate":"19910120","EndDate":"19910120","Emission_ID":353}},{"type":"Feature","id":"E3WebApp_Emissions.fid--766d72af_19b1f43468b_4523","geometry":{"type":"Point","coordinates":[-19.666,63.983]},"geometry_name":"GeoLocation","properties":{"VolcanoNumber":372070,"VolcanoName":"Hekla","SO2_Kilotons":183,"StartDate":"20000226","EndDate":"20000226","Emission_ID":354}},{"type":"Feature","id":"E3WebApp_Emissions.fid--766d72af_19b1f43468b_4524","geometry":{"type":"Point","coordinates":[-17.316,64.416]},"geometry_name":"GeoLocation","properties":{"VolcanoNumber":373010,"VolcanoName":"Grimsvotn","SO2_Kilotons":10,"StartDate":"19830529","EndDate":"19830529","Emission_ID":355}},{"type":"Feature","id":"E3WebApp_Emissions.fid--766d72af_19b1f43468b_4525","geometry":{"type":"Point","coordinates":[-17.316,64.416]},"geometry_name":"GeoLocation","properties":{"VolcanoNumber":373010,"VolcanoName":"Grimsvotn","SO2_Kilotons":10,"StartDate":"19961002","EndDate":"19961002","Emission_ID":356}},{"type":"Feature","id":"E3WebApp_Emissions.fid--766d72af_19b1f43468b_4526","geometry":{"type":"Point","coordinates":[-17.316,64.416]},"geometry_name":"GeoLocation","properties":{"VolcanoNumber":373010,"VolcanoName":"Grimsvotn","SO2_Kilotons":30,"StartDate":"20041102","EndDate":"20041102","Emission_ID":357}},{"type":"Feature","id":"E3WebApp_Emissions.fid--766d72af_19b1f43468b_4527","geometry":{"type":"Point","coordinates":[-17.316,64.416]},"geometry_name":"GeoLocation","properties":{"VolcanoNumber":373010,"VolcanoName":"Grimsvotn","SO2_Kilotons":300,"StartDate":"20110521","EndDate":"20110521","Emission_ID":358}},{"type":"Feature","id":"E3WebApp_Emissions.fid--766d72af_19b1f43468b_4528","geometry":{"type":"Point","coordinates":[-17.516,64.633]},"geometry_name":"GeoLocation","properties":{"VolcanoNumber":373030,"VolcanoName":"Bardarbunga","SO2_Kilotons":11800,"StartDate":"20140831","EndDate":"20140831","Emission_ID":359}},{"type":"Feature","id":"E3WebApp_Emissions.fid--766d72af_19b1f43468b_4529","geometry":{"type":"Point","coordinates":[-16.728,65.715]},"geometry_name":"GeoLocation","properties":{"VolcanoNumber":373080,"VolcanoName":"Krafla","SO2_Kilotons":250,"StartDate":"19800711","EndDate":"19800711","Emission_ID":360}},{"type":"Feature","id":"E3WebApp_Emissions.fid--766d72af_19b1f43468b_452a","geometry":{"type":"Point","coordinates":[-16.728,65.715]},"geometry_name":"GeoLocation","properties":{"VolcanoNumber":373080,"VolcanoName":"Krafla","SO2_Kilotons":60,"StartDate":"19801019","EndDate":"19801019","Emission_ID":361}},{"type":"Feature","id":"E3WebApp_Emissions.fid--766d72af_19b1f43468b_452b","geometry":{"type":"Point","coordinates":[-16.728,65.715]},"geometry_name":"GeoLocation","properties":{"VolcanoNumber":373080,"VolcanoName":"Krafla","SO2_Kilotons":375,"StartDate":"19840905","EndDate":"19840905","Emission_ID":362}},{"type":"Feature","id":"E3WebApp_Emissions.fid--766d72af_19b1f43468b_452c","geometry":{"type":"Point","coordinates":[-152.742,60.485]},"geometry_name":"GeoLocation","properties":{"VolcanoNumber":313030,"VolcanoName":"Redoubt","SO2_Kilotons":140,"StartDate":"19891215","EndDate":"19891215","Emission_ID":227}},{"type":"Feature","id":"E3WebApp_Emissions.fid--766d72af_19b1f43468b_452d","geometry":{"type":"Point","coordinates":[-152.742,60.485]},"geometry_name":"GeoLocation","properties":{"VolcanoNumber":313030,"VolcanoName":"Redoubt","SO2_Kilotons":16,"StartDate":"19900309","EndDate":"19900309","Emission_ID":228}},{"type":"Feature","id":"E3WebApp_Emissions.fid--766d72af_19b1f43468b_452e","geometry":{"type":"Point","coordinates":[-152.742,60.485]},"geometry_name":"GeoLocation","properties":{"VolcanoNumber":313030,"VolcanoName":"Redoubt","SO2_Kilotons":159,"StartDate":"20090323","EndDate":"20090404","Emission_ID":229}},{"type":"Feature","id":"E3WebApp_Emissions.fid--766d72af_19b1f43468b_452f","geometry":{"type":"Point","coordinates":[-152.251,61.299]},"geometry_name":"GeoLocation","properties":{"VolcanoNumber":313040,"VolcanoName":"Spurr","SO2_Kilotons":250,"StartDate":"19920627","EndDate":"19920627","Emission_ID":230}},{"type":"Feature","id":"E3WebApp_Emissions.fid--766d72af_19b1f43468b_4530","geometry":{"type":"Point","coordinates":[-152.251,61.299]},"geometry_name":"GeoLocation","properties":{"VolcanoNumber":313040,"VolcanoName":"Spurr","SO2_Kilotons":300,"StartDate":"19920818","EndDate":"19920818","Emission_ID":231}},{"type":"Feature","id":"E3WebApp_Emissions.fid--766d72af_19b1f43468b_4531","geometry":{"type":"Point","coordinates":[-152.251,61.299]},"geometry_name":"GeoLocation","properties":{"VolcanoNumber":313040,"VolcanoName":"Spurr","SO2_Kilotons":250,"StartDate":"19920917","EndDate":"19920917","Emission_ID":232}},{"type":"Feature","id":"E3WebApp_Emissions.fid--766d72af_19b1f43468b_4532","geometry":{"type":"Point","coordinates":[29.2,-1.408]},"geometry_name":"GeoLocation","properties":{"VolcanoNumber":223020,"VolcanoName":"Nyamulagira","SO2_Kilotons":884,"StartDate":"19800131","EndDate":"19800131","Emission_ID":37}},{"type":"Feature","id":"E3WebApp_Emissions.fid--766d72af_19b1f43468b_4533","geometry":{"type":"Point","coordinates":[29.2,-1.408]},"geometry_name":"GeoLocation","properties":{"VolcanoNumber":223020,"VolcanoName":"Nyamulagira","SO2_Kilotons":4122,"StartDate":"19811225","EndDate":"19811225","Emission_ID":38}},{"type":"Feature","id":"E3WebApp_Emissions.fid--766d72af_19b1f43468b_4534","geometry":{"type":"Point","coordinates":[29.2,-1.408]},"geometry_name":"GeoLocation","properties":{"VolcanoNumber":223020,"VolcanoName":"Nyamulagira","SO2_Kilotons":1384,"StartDate":"19840223","EndDate":"19840223","Emission_ID":39}},{"type":"Feature","id":"E3WebApp_Emissions.fid--766d72af_19b1f43468b_4535","geometry":{"type":"Point","coordinates":[29.2,-1.408]},"geometry_name":"GeoLocation","properties":{"VolcanoNumber":223020,"VolcanoName":"Nyamulagira","SO2_Kilotons":983,"StartDate":"19860716","EndDate":"19860716","Emission_ID":40}},{"type":"Feature","id":"E3WebApp_Emissions.fid--766d72af_19b1f43468b_4536","geometry":{"type":"Point","coordinates":[29.2,-1.408]},"geometry_name":"GeoLocation","properties":{"VolcanoNumber":223020,"VolcanoName":"Nyamulagira","SO2_Kilotons":28,"StartDate":"19871231","EndDate":"19871231","Emission_ID":41}},{"type":"Feature","id":"E3WebApp_Emissions.fid--766d72af_19b1f43468b_4537","geometry":{"type":"Point","coordinates":[29.2,-1.408]},"geometry_name":"GeoLocation","properties":{"VolcanoNumber":223020,"VolcanoName":"Nyamulagira","SO2_Kilotons":2105,"StartDate":"19890424","EndDate":"19890424","Emission_ID":42}},{"type":"Feature","id":"E3WebApp_Emissions.fid--766d72af_19b1f43468b_4538","geometry":{"type":"Point","coordinates":[29.2,-1.408]},"geometry_name":"GeoLocation","properties":{"VolcanoNumber":223020,"VolcanoName":"Nyamulagira","SO2_Kilotons":858,"StartDate":"19910922","EndDate":"19910922","Emission_ID":43}},{"type":"Feature","id":"E3WebApp_Emissions.fid--766d72af_19b1f43468b_4539","geometry":{"type":"Point","coordinates":[29.2,-1.408]},"geometry_name":"GeoLocation","properties":{"VolcanoNumber":223020,"VolcanoName":"Nyamulagira","SO2_Kilotons":1514,"StartDate":"19940705","EndDate":"19940705","Emission_ID":44}},{"type":"Feature","id":"E3WebApp_Emissions.fid--766d72af_19b1f43468b_453a","geometry":{"type":"Point","coordinates":[29.2,-1.408]},"geometry_name":"GeoLocation","properties":{"VolcanoNumber":223020,"VolcanoName":"Nyamulagira","SO2_Kilotons":887,"StartDate":"19961201","EndDate":"19961201","Emission_ID":45}},{"type":"Feature","id":"E3WebApp_Emissions.fid--766d72af_19b1f43468b_453b","geometry":{"type":"Point","coordinates":[29.2,-1.408]},"geometry_name":"GeoLocation","properties":{"VolcanoNumber":223020,"VolcanoName":"Nyamulagira","SO2_Kilotons":2513,"StartDate":"19981017","EndDate":"19981017","Emission_ID":46}},{"type":"Feature","id":"E3WebApp_Emissions.fid--766d72af_19b1f43468b_453c","geometry":{"type":"Point","coordinates":[29.2,-1.408]},"geometry_name":"GeoLocation","properties":{"VolcanoNumber":223020,"VolcanoName":"Nyamulagira","SO2_Kilotons":317,"StartDate":"20000128","EndDate":"20000128","Emission_ID":47}},{"type":"Feature","id":"E3WebApp_Emissions.fid--766d72af_19b1f43468b_453d","geometry":{"type":"Point","coordinates":[29.2,-1.408]},"geometry_name":"GeoLocation","properties":{"VolcanoNumber":223020,"VolcanoName":"Nyamulagira","SO2_Kilotons":1651,"StartDate":"20010206","EndDate":"20010206","Emission_ID":48}},{"type":"Feature","id":"E3WebApp_Emissions.fid--766d72af_19b1f43468b_453e","geometry":{"type":"Point","coordinates":[29.2,-1.408]},"geometry_name":"GeoLocation","properties":{"VolcanoNumber":223020,"VolcanoName":"Nyamulagira","SO2_Kilotons":2321,"StartDate":"20020725","EndDate":"20020725","Emission_ID":49}},{"type":"Feature","id":"E3WebApp_Emissions.fid--766d72af_19b1f43468b_453f","geometry":{"type":"Point","coordinates":[29.2,-1.408]},"geometry_name":"GeoLocation","properties":{"VolcanoNumber":223020,"VolcanoName":"Nyamulagira","SO2_Kilotons":2587,"StartDate":"20040508","EndDate":"20040508","Emission_ID":50}},{"type":"Feature","id":"E3WebApp_Emissions.fid--766d72af_19b1f43468b_4540","geometry":{"type":"Point","coordinates":[29.2,-1.408]},"geometry_name":"GeoLocation","properties":{"VolcanoNumber":223020,"VolcanoName":"Nyamulagira","SO2_Kilotons":675,"StartDate":"20061127","EndDate":"20061127","Emission_ID":51}},{"type":"Feature","id":"E3WebApp_Emissions.fid--766d72af_19b1f43468b_4541","geometry":{"type":"Point","coordinates":[29.2,-1.408]},"geometry_name":"GeoLocation","properties":{"VolcanoNumber":223020,"VolcanoName":"Nyamulagira","SO2_Kilotons":601,"StartDate":"20100102","EndDate":"20100102","Emission_ID":52}},{"type":"Feature","id":"E3WebApp_Emissions.fid--766d72af_19b1f43468b_4542","geometry":{"type":"Point","coordinates":[29.2,-1.408]},"geometry_name":"GeoLocation","properties":{"VolcanoNumber":223020,"VolcanoName":"Nyamulagira","SO2_Kilotons":1719,"StartDate":"20111107","EndDate":"20111107","Emission_ID":53}},{"type":"Feature","id":"E3WebApp_Emissions.fid--766d72af_19b1f43468b_4543","geometry":{"type":"Point","coordinates":[29.25,-1.52]},"geometry_name":"GeoLocation","properties":{"VolcanoNumber":223030,"VolcanoName":"Nyiragongo","SO2_Kilotons":30,"StartDate":"20020117","EndDate":"20020117","Emission_ID":54}},{"type":"Feature","id":"E3WebApp_Emissions.fid--766d72af_19b1f43468b_4544","geometry":{"type":"Point","coordinates":[9.17,4.203]},"geometry_name":"GeoLocation","properties":{"VolcanoNumber":224010,"VolcanoName":"Cameroon","SO2_Kilotons":3,"StartDate":"19821018","EndDate":"19821018","Emission_ID":55}},{"type":"Feature","id":"E3WebApp_Emissions.fid--766d72af_19b1f43468b_4545","geometry":{"type":"Point","coordinates":[9.17,4.203]},"geometry_name":"GeoLocation","properties":{"VolcanoNumber":224010,"VolcanoName":"Cameroon","SO2_Kilotons":45,"StartDate":"19990330","EndDate":"19990330","Emission_ID":56}},{"type":"Feature","id":"E3WebApp_Emissions.fid--766d72af_19b1f43468b_4546","geometry":{"type":"Point","coordinates":[107.7306,-7.3175]},"geometry_name":"GeoLocation","properties":{"VolcanoNumber":263100,"VolcanoName":"Papandayan","SO2_Kilotons":7,"StartDate":"20021113","EndDate":"20021113","Emission_ID":112}},{"type":"Feature","id":"E3WebApp_Emissions.fid--766d72af_19b1f43468b_4547","geometry":{"type":"Point","coordinates":[108.058,-7.25]},"geometry_name":"GeoLocation","properties":{"VolcanoNumber":263140,"VolcanoName":"Galunggung","SO2_Kilotons":730,"StartDate":"19820405","EndDate":"19820603","Emission_ID":113}}],"totalFeatures":360,"numberMatched":360,"numberReturned":50,"timeStamp":"2025-12-15T01:42:13.303Z","crs":{"type":"name","properties":{"name":"urn:ogc:def:crs:EPSG::4326"}}}